{"type": "FeatureCollection", "features": [{"type": "Feature", "geometry": {"type": "Point", "coordinates": [-93.2212239, 45.0716387]}, "properties": {"CLIENT": "Antea Group", "FACILITY_NAME": "Greater St. Paul - St. Paul MN", "cat_risk": null, "cat_valid": null, "cat_expire": null, "cat_color": null}}, {"type": "Feature", "geometry": {"type": "Point", "coordinates": [-97.7528657, 30.3865013]}, "properties": {"CLIENT": "Antea Group", "FACILITY_NAME": "Greater Austin TX", "cat_risk": null, "cat_valid": null, "cat_expire": null, "cat_color": null}}, {"type": "Feature", "geometry": {"type": "Point", "coordinates": [-121.277034, 38.5892643]}, "properties": {"CLIENT": "Antea Group", "FACILITY_NAME": "Greater California - Sacramento CA", "cat_risk": null, "cat_valid": null, "cat_expire": null, "cat_color": null}}, {"type": "Feature", "geometry": {"type": "Point", "coordinates": [-121.977909, 37.4057302]}, "properties": {"CLIENT": "Antea Group", "FACILITY_NAME": "Greater California - San Jose CA", "cat_risk": null, "cat_valid": null, "cat_expire": null, "cat_color": null}}, {"type": "Feature", "geometry": {"type": "Point", "coordinates": [-82.9164901, 40.0522342]}, "properties": {"CLIENT": "Antea Group", "FACILITY_NAME": "Greater Great Lakes - Columbus OH", "cat_risk": null, "cat_valid": null, "cat_expire": null, "cat_color": null}}, {"type": "Feature", "geometry": {"type": "Point", "coordinates": [-83.3912891, 42.4960944]}, "properties": {"CLIENT": "Antea Group", "FACILITY_NAME": "Greater Great Lakes - Detroit MI", "cat_risk": null, "cat_valid": null, "cat_expire": null, "cat_color": null}}, {"type": "Feature", "geometry": {"type": "Point", "coordinates": [-79.869825, 40.492247]}, "properties": {"CLIENT": "Antea Group", "FACILITY_NAME": "Greater Great Lakes - Pittsburgh PA", "cat_risk": null, "cat_valid": null, "cat_expire": null, "cat_color": null}}, {"type": "Feature", "geometry": {"type": "Point", "coordinates": [-71.4016037, 42.2993222]}, "properties": {"CLIENT": "Antea Group", "FACILITY_NAME": "Greater New England - Boston MA", "cat_risk": null, "cat_valid": null, "cat_expire": null, "cat_color": null}}, {"type": "Feature", "geometry": {"type": "Point", "coordinates": [-72.739919, 41.760249]}, "properties": {"CLIENT": "Antea Group", "FACILITY_NAME": "Greater New England - Hartford CT", "cat_risk": null, "cat_valid": null, "cat_expire": null, "cat_color": null}}, {"type": "Feature", "geometry": {"type": "Point", "coordinates": [-73.7647624, 41.0348698]}, "properties": {"CLIENT": "Antea Group", "FACILITY_NAME": "Greater New York - White Plains NY", "cat_risk": null, "cat_valid": null, "cat_expire": null, "cat_color": null}}, {"type": "Feature", "geometry": {"type": "Point", "coordinates": [-122.6635583, 45.4653643]}, "properties": {"CLIENT": "Antea Group", "FACILITY_NAME": "Greater Pacific Northwest - Portland OR", "cat_risk": null, "cat_valid": null, "cat_expire": null, "cat_color": null}}, {"type": "Feature", "geometry": {"type": "Point", "coordinates": [-122.0952982, 47.6612819]}, "properties": {"CLIENT": "Antea Group", "FACILITY_NAME": "Greater Pacific Northwest - Seattle WA", "cat_risk": null, "cat_valid": null, "cat_expire": null, "cat_color": null}}, {"type": "Feature", "geometry": {"type": "Point", "coordinates": [-75.048866, 39.934903]}, "properties": {"CLIENT": "Antea Group", "FACILITY_NAME": "Greater Philadelphia - Cherry Hill NJ", "cat_risk": null, "cat_valid": null, "cat_expire": null, "cat_color": null}}, {"type": "Feature", "geometry": {"type": "Point", "coordinates": [-105.131743, 39.7186923]}, "properties": {"CLIENT": "Antea Group", "FACILITY_NAME": "Greater Rocky Mountain - Denver CO", "cat_risk": null, "cat_valid": null, "cat_expire": null, "cat_color": null}}, {"type": "Feature", "geometry": {"type": "Point", "coordinates": [-105.0285866, 40.5613903]}, "properties": {"CLIENT": "Antea Group", "FACILITY_NAME": "Greater Rocky Mountain - Fort Collins CO", "cat_risk": null, "cat_valid": null, "cat_expire": null, "cat_color": null}}, {"type": "Feature", "geometry": {"type": "Point", "coordinates": [-84.213739, 33.976733]}, "properties": {"CLIENT": "Antea Group", "FACILITY_NAME": "Greater Southeast - Atlanta GA", "cat_risk": null, "cat_valid": null, "cat_expire": null, "cat_color": null}}, {"type": "Feature", "geometry": {"type": "Point", "coordinates": [-80.8377586, 35.0566966]}, "properties": {"CLIENT": "Antea Group", "FACILITY_NAME": "Greater Southeast - Charlotte NC", "cat_risk": null, "cat_valid": null, "cat_expire": null, "cat_color": null}}, {"type": "Feature", "geometry": {"type": "Point", "coordinates": [-88.0613135, 41.8081285]}, "properties": {"CLIENT": "Antea Group", "FACILITY_NAME": "Greater St Louis - Chicago IL", "cat_risk": null, "cat_valid": null, "cat_expire": null, "cat_color": null}}, {"type": "Feature", "geometry": {"type": "Point", "coordinates": [-90.446086, 38.7013756]}, "properties": {"CLIENT": "Antea Group", "FACILITY_NAME": "Greater St Louis - St Louis MO", "cat_risk": null, "cat_valid": null, "cat_expire": null, "cat_color": null}}]}